[
  {
    "model": "gatheros_event.place",
    "pk": 1,
    "fields": {
      "name": "Modul Coworking",
      "event_id": 1,
      "city": 5413,
      "phone": null,
      "long": null,
      "lat": null,
      "zip_code": "74120080",
      "street": "Rua 18",
      "number": "282",
      "complement": "Galeria Marfim, Sl 7",
      "village": "Setor Oeste",
      "reference": "Pr\u00f3ximo ao Restaurante do Walmor"
    }
  },
  {
    "model": "gatheros_event.place",
    "pk": 2,
    "fields": {
      "name": "Senac Cora Coralina",
      "event_id": 2,
      "city": 5413,
      "phone": null,
      "long": null,
      "lat": null,
      "zip_code": "74645010",
      "street": "Av. Independ\u00eancia",
      "number": "1002",
      "complement": null,
      "village": "Setor Leste Vila Nova",
      "reference": null
    }
  },
  {
    "model": "gatheros_event.place",
    "pk": 6,
    "fields": {
      "name": "Senac Cora Coralina",
      "event_id": 6,
      "city": 5413,
      "phone": null,
      "long": null,
      "lat": null,
      "zip_code": "74645010",
      "street": "Av. Independ\u00eancia",
      "number": "1002",
      "complement": null,
      "village": "Setor Leste Vila Nova",
      "reference": null
    }
  },
  {
    "model": "gatheros_event.place",
    "pk": 7,
    "fields": {
      "name": "EVV / UEG - Programa Educando e Valorizando a Vida",
      "event_id": 7,
      "city": 5413,
      "phone": null,
      "long": null,
      "lat": null,
      "zip_code": "74255150",
      "street": "Rua C-158",
      "number": "S/N",
      "complement": "Qd. 314, Lt. 17",
      "village": "Jardim America",
      "reference": null
    }
  },
  {
    "model": "gatheros_event.place",
    "pk": 8,
    "fields": {
      "name": "CPDF - Centro Pastoral Dom Fernando",
      "event_id": 8,
      "city": 5413,
      "phone": null,
      "long": null,
      "lat": null,
      "zip_code": "63148000",
      "street": "Av. An\u00e1polis",
      "number": "2020",
      "complement": null,
      "village": "Jardim das Aroeiras",
      "reference": "Sa\u00edda para Luzi\u00e2nia"
    }
  },
  {
    "model": "gatheros_event.place",
    "pk": 9,
    "fields": {
      "name": "Ch\u00e1cara Recanto do Sossego",
      "event_id": 9,
      "city": 5414,
      "phone": null,
      "long": null,
      "lat": null,
      "zip_code": "75370000",
      "street": "Rua Dona Deolinda",
      "number": "S/N",
      "complement": "Qd. 79/80",
      "village": "Ch\u00e1cara S\u00e3o Domingos",
      "reference": null
    }
  }
]
